[
  {
    "id": 1,
    "name": "3fe Coffee",
    "type": "Specialty Roaster",
    "address": "32 Grand Canal Street Lower, Dublin 2",
    "lat": 53.3391,
    "lng": -6.2418,
    "rating": 4.8,
    "tags": ["specialty", "wifi", "roastery"],
    "description": "Award-winning specialty coffee roasters"
  },
  {
    "id": 2,
    "name": "Kaph",
    "type": "Specialty Café",
    "address": "31 Drury Street, Dublin 2",
    "lat": 53.3425,
    "lng": -6.2633,
    "rating": 4.7,
    "tags": ["specialty", "cozy", "brunch"],
    "description": "Minimalist café with excellent brews"
  },
  {
    "id": 3,
    "name": "Clement & Pekoe",
    "type": "Tea & Coffee House",
    "address": "50 South William Street, Dublin 2",
    "lat": 53.3421,
    "lng": -6.2629,
    "rating": 4.6,
    "tags": ["specialty", "cozy"],
    "description": "Artisan tea and coffee specialists"
  },
  {
    "id": 4,
    "name": "Two Boys Brew",
    "type": "Specialty Café",
    "address": "375 North Circular Road, Dublin 7",
    "lat": 53.3565,
    "lng": -6.268,
    "rating": 4.7,
    "tags": ["specialty", "brunch", "wifi"],
    "description": "Neighborhood gem with great food"
  },
  {
    "id": 5,
    "name": "Network Café",
    "type": "Community Café",
    "address": "39 Aungier Street, Dublin 2",
    "lat": 53.3397,
    "lng": -6.2657,
    "rating": 4.5,
    "tags": ["wifi", "cozy", "brunch"],
    "description": "Social enterprise café with heart"
  },
  {
    "id": 6,
    "name": "Brother Hubbard North",
    "type": "Café & Restaurant",
    "address": "153 Capel Street, Dublin 1",
    "lat": 53.3478,
    "lng": -6.2673,
    "rating": 4.6,
    "tags": ["brunch", "cozy"],
    "description": "Middle Eastern inspired brunch spot"
  },
  {
    "id": 7,
    "name": "Shoe Lane Coffee",
    "type": "Specialty Café",
    "address": "Tara Building, Tara Street, Dublin 2",
    "lat": 53.3462,
    "lng": -6.2545,
    "rating": 4.5,
    "tags": ["specialty", "wifi"],
    "description": "Modern café in creative workspace"
  },
  {
    "id": 8,
    "name": "Vice Coffee Inc.",
    "type": "Specialty Roaster",
    "address": "54 Middle Abbey Street, Dublin 1",
    "lat": 53.3485,
    "lng": -6.2605,
    "rating": 4.6,
    "tags": ["specialty", "wifi", "roastery"],
    "description": "Industrial chic coffee roasters"
  },
  {
    "id": 9,
    "name": "Beanhive",
    "type": "Specialty Café",
    "address": "South Inner City, Dublin 2",
    "lat": 53.3398,
    "lng": -6.2603,
    "rating": 4.6,
    "tags": ["specialty", "breakfast", "wifi"],
    "description": "Excellent breakfast and superb coffee service"
  },
  {
    "id": 10,
    "name": "Queen of Tarts",
    "type": "Café & Bakery",
    "address": "Temple Bar, Dublin 2",
    "lat": 53.3453,
    "lng": -6.2644,
    "rating": 4.4,
    "tags": ["cozy", "brunch", "bakery"],
    "description": "Delicious tarts, cakes and great coffee in cozy setting"
  },
  {
    "id": 11,
    "name": "Two Pups Coffee",
    "type": "Specialty Café",
    "address": "The Liberties, Dublin 8",
    "lat": 53.3415,
    "lng": -6.2755,
    "rating": 4.6,
    "tags": ["specialty", "outdoor", "wifi"],
    "description": "Great little spot with friendly people and outdoor seating"
  },
  {
    "id": 12,
    "name": "The Bald Barista",
    "type": "Specialty Café",
    "address": "South Inner City, Dublin 2",
    "lat": 53.3405,
    "lng": -6.2615,
    "rating": 4.6,
    "tags": ["specialty", "quick-service", "wifi"],
    "description": "Busy city ambience with good food and great coffee"
  },
  {
    "id": 13,
    "name": "The Bakehouse",
    "type": "Café & Bakery",
    "address": "North Inner City, Dublin 1",
    "lat": 53.3498,
    "lng": -6.2603,
    "rating": 4.3,
    "tags": ["bakery", "breakfast", "brunch"],
    "description": "Wonderful breakfast with brioche sandwiches and great coffee"
  },
  {
    "id": 14,
    "name": "Fonte Coffee",
    "type": "Specialty Café",
    "address": "Temple Bar, Dublin 2",
    "lat": 53.3456,
    "lng": -6.2641,
    "rating": 4.8,
    "tags": ["specialty", "bakery", "cozy"],
    "description": "Great coffee and danishes with friendly staff"
  },
  {
    "id": 15,
    "name": "Coffee Angel",
    "type": "Café Chain",
    "address": "South Inner City, Dublin 2",
    "lat": 53.3402,
    "lng": -6.2608,
    "rating": 4.4,
    "tags": ["wifi", "brunch", "cozy"],
    "description": "Great location for lunch and coffee with relaxing atmosphere"
  },
  {
    "id": 16,
    "name": "Urbanity",
    "type": "Specialty Café",
    "address": "Smithfield, Dublin 7",
    "lat": 53.3478,
    "lng": -6.2778,
    "rating": 4.5,
    "tags": ["specialty", "vegan", "wifi"],
    "description": "Wonderful vegan options with great coffee and food"
  },
  {
    "id": 17,
    "name": "Proper Order Coffee Co.",
    "type": "Specialty Roaster",
    "address": "6 Haymarket, Smithfield, Dublin 7",
    "lat": 53.3476,
    "lng": -6.2772,
    "rating": 4.8,
    "tags": ["specialty", "roastery", "wifi"],
    "description": "Award-winning roastery and café with industrial vibe"
  },
  {
    "id": 18,
    "name": "Fumbally Café",
    "type": "Community Café",
    "address": "Fumbally Lane, Dublin 8",
    "lat": 53.3372,
    "lng": -6.2724,
    "rating": 4.7,
    "tags": ["brunch", "organic", "community"],
    "description": "Community-focused café with organic, wholesome food"
  },
  {
    "id": 19,
    "name": "Platform 61",
    "type": "Specialty Café",
    "address": "Tara Street Station, Dublin 2",
    "lat": 53.3476,
    "lng": -6.2531,
    "rating": 4.5,
    "tags": ["specialty", "wifi", "quick-service"],
    "description": "Stylish café in historic train station setting"
  },
  {
    "id": 20,
    "name": "The Woollen Mills",
    "type": "Café & Restaurant",
    "address": "42 Lower Ormond Quay, Dublin 1",
    "lat": 53.3466,
    "lng": -6.2655,
    "rating": 4.4,
    "tags": ["brunch", "wifi", "riverside"],
    "description": "Riverside spot with quality coffee and all-day dining"
  },
  {
    "id": 21,
    "name": "Wall & Keogh",
    "type": "Specialty Café",
    "address": "4 Richmond Street South, Dublin 2",
    "lat": 53.3351,
    "lng": -6.2588,
    "rating": 4.7,
    "tags": ["specialty", "cozy", "wifi"],
    "description": "Neighborhood gem with top-notch coffee and friendly vibes"
  },
  {
    "id": 22,
    "name": "Coffeewerk + Press",
    "type": "Specialty Café",
    "address": "4 Barrow Street, Grand Canal Dock, Dublin 4",
    "lat": 53.3382,
    "lng": -6.2391,
    "rating": 4.5,
    "tags": ["specialty", "wifi", "modern"],
    "description": "Modern coffee bar in the Docklands with serious brews"
  },
  {
    "id": 23,
    "name": "The Hopsack",
    "type": "Specialty Café",
    "address": "Drury Street, Dublin 2",
    "lat": 53.3422,
    "lng": -6.2635,
    "rating": 4.6,
    "tags": ["specialty", "vintage", "cozy"],
    "description": "Vintage-style café with excellent coffee and atmosphere"
  },
  {
    "id": 24,
    "name": "Love Supreme",
    "type": "Specialty Café",
    "address": "5 Aungier Street, Dublin 2",
    "lat": 53.3404,
    "lng": -6.2635,
    "rating": 4.7,
    "tags": ["specialty", "wifi", "brunch"],
    "description": "Compact café with top-tier espresso and cool tunes"
  },
  {
    "id": 25,
    "name": "Bread 41",
    "type": "Café & Bakery",
    "address": "41 Pearse Street, Dublin 2",
    "lat": 53.3445,
    "lng": -6.2486,
    "rating": 4.5,
    "tags": ["bakery", "brunch", "cozy"],
    "description": "Artisan bakery with freshly baked goods and quality coffee"
  }
]
